t/sosa_mp/2010/OCT0410/oflsa/History/ECLIPSE.txt

Satellite-Chandra:  Eclipse Times								 2010/116 Epoch 


Start Time (UTCJFOUR)    Stop Time (UTCJFOUR)    Duration (sec)    Current Condition    Obstruction	Entry Timer	Type
---------------------    --------------------    --------------    -----------------    -----------	-----------	----
 306/2010 15:00:32.45    306/2010 15:03:13.23           160.782   Penumbra              Earth      	1171		NORMAL
 306/2010 15:03:13.23    306/2010 15:21:38.75          1105.523   Umbra                 Earth      
 306/2010 15:21:38.75    306/2010 15:24:47.96           189.211   Penumbra              Earth      

 309/2010 06:24:59.76    309/2010 06:26:41.88           102.120   Penumbra              Earth      	1171		NORMAL
 309/2010 06:26:41.88    309/2010 06:59:59.10          1997.214   Umbra                 Earth      
 309/2010 06:59:59.10    309/2010 07:02:11.38           132.277   Penumbra              Earth      

 311/2010 21:51:39.82    311/2010 21:53:03.39            83.571   Penumbra              Earth      	1171		NORMAL
 311/2010 21:53:03.39    311/2010 22:36:45.60          2622.207   Umbra                 Earth      
 311/2010 22:36:45.60    311/2010 22:38:41.08           115.482   Penumbra              Earth      

 314/2010 13:20:32.10    314/2010 13:21:46.85            74.751   Penumbra              Earth      	1171		NORMAL
 314/2010 13:21:46.85    314/2010 14:13:56.43          3129.577   Umbra                 Earth      
 314/2010 14:13:56.43    314/2010 14:15:44.89           108.464   Penumbra              Earth      

 317/2010 04:50:55.62    317/2010 04:52:06.81            71.192   Penumbra              Earth      	1171		NORMAL
 317/2010 04:52:06.81    317/2010 05:51:00.78          3533.962   Umbra                 Earth      
 317/2010 05:51:00.78    317/2010 05:52:47.58           106.804   Penumbra              Earth      

 319/2010 20:22:04.16    319/2010 20:23:15.55            71.387   Penumbra              Earth      	1171		NORMAL
 319/2010 20:23:15.55    319/2010 21:27:06.45          3830.900   Umbra                 Earth      
 319/2010 21:27:06.45    319/2010 21:28:55.46           109.009   Penumbra              Earth      

 322/2010 11:53:18.27    322/2010 11:54:33.09            74.822   Penumbra              Earth      	1171		NORMAL
 322/2010 11:54:33.09    322/2010 13:01:19.45          4006.366   Umbra                 Earth      
 322/2010 13:01:19.45    322/2010 13:03:14.03           114.578   Penumbra              Earth      

 325/2010 03:24:14.83    325/2010 03:25:36.44            81.611   Penumbra              Earth      	1171		NORMAL
 325/2010 03:25:36.44    325/2010 04:32:50.49          4034.046   Umbra                 Earth      
 325/2010 04:32:50.49    325/2010 04:34:54.11           123.616   Penumbra              Earth      

 327/2010 18:55:34.93    327/2010 18:57:08.13            93.198   Penumbra              Earth      	1171		NORMAL
 327/2010 18:57:08.13    327/2010 20:01:27.17          3859.049   Umbra                 Earth      
 327/2010 20:01:27.17    327/2010 20:03:44.70           137.530   Penumbra              Earth      

 330/2010 10:29:47.11    330/2010 10:31:44.89           117.773   Penumbra              Earth      	1171		NORMAL
 330/2010 10:31:44.89    330/2010 11:27:23.33          3338.444   Umbra                 Earth      
 330/2010 11:27:23.33    330/2010 11:30:07.81           164.480   Penumbra              Earth      

 333/2010 02:09:05.40    333/2010 02:12:30.24           204.845   Penumbra              Earth      	1171		NORMAL
 333/2010 02:12:30.24    333/2010 02:47:05.76          2075.517   Umbra                 Earth      
 333/2010 02:47:05.76    333/2010 02:51:19.81           254.052   Penumbra              Earth      
